{
"RECORDS":[
{
"unit_id":3310,
"name":"仁山公园",
"lng":109.21639,
"lat":27.578064,
"address":"贵州省铜仁市万山区",
"count":"20.7"
},
{
"unit_id":3522,
"name":"冲广坪",
"lng":109.21114258,
"lat":27.59878117,
"address":"铜仁市万山区",
"count":"40.9"
},
{
"unit_id":3656,
"name":"万和星城",
"lng":109.210006,
"lat":27.56899,
"address":"铜仁市万山区",
"count":"60.6"
},
{
"unit_id":3677,
"name":"花果山",
"lng":109.1890396964,
"lat":27.7630540393,
"address":"贵州铜仁",
"count":"20.5"
},
{
"unit_id":3800,
"name":"瓦窑头小区",
"lng":108.111047,
"lat":28.361084,
"address":"青龙街道钟山西路",
"count":"30.3"
},
{
"unit_id":3801,
"name":"新车站小区",
"lng":108.25263,
"lat":28.352949,
"address":"青龙街道香树路",
"count":"50.6"
},
{
"unit_id":3802,
"name":"中兴花苑小区",
"lng":108.192675,
"lat":28.325454,
"address":"玉水街道钟山中路",
"count":"70.9"
},
{
"unit_id":3803,
"name":"黑沙坝小区",
"lng":108.115121,
"lat":28.255414,
"address":"玉水街道红旗路",
"count":"40.9"
},
{
"unit_id":3807,
"name":"县医院",
"lng":108.671006,
"lat":27.941683,
"address":"印江土家族苗族自治县龙津街道荣昌街",
"count":"50.5"
},
{
"unit_id":3808,
"name":"东城1号",
"lng":108.703661,
"lat":28.001977,
"address":"印江土家族苗族自治县峨岭街道县府路",
"count":"80.4"
},
{
"unit_id":3811,
"name":"职校小区",
"lng":109.2420884223,
"lat":27.8274298892,
"address":"碧江区川洞街道中等职业技术学校",
"count":"60.3"
},
{
"unit_id":3812,
"name":"麒龙国际小区",
"lng":109.2250870344,
"lat":27.6249908879,
"address":"碧江区川洞街道麒龙国际小区",
"count":"90.4"
},
{
"unit_id":3813,
"name":"风筝放飞基地",
"lng":109.219523,
"lat":27.612541,
"address":"铜仁市万山区谢桥街道万山区谢桥办事处",
"count":"10.5"
},
{
"unit_id":3814,
"name":"八中",
"lng":109.235325,
"lat":27.63901,
"address":"铜仁市万山区谢桥街道办事处冲广坪",
"count":"10.4"
},
{
"unit_id":3815,
"name":"平块小区",
"lng":109.210612,
"lat":28.140011,
"address":"松桃县蓼皋街道平块大道",
"count":"20.3"
},
{
"unit_id":3836,
"name":"江岸名都一组团",
"lng":108.251547,
"lat":27.822255,
"address":"思唐街道城北街",
"count":"30.2"
},
{
"unit_id":3837,
"name":"江岸名都二组团",
"lng":108.351628,
"lat":27.823301,
"address":"思唐街道城北街",
"count":"60.3"
},
{
"unit_id":3842,
"name":"劲嘉生态城",
"lng":108.836923,
"lat":27.768844,
"address":"江口县双江街道办事处二中对面",
"count":"50.3"
},
{
"unit_id":3843,
"name":"江上明珠",
"lng":108.844675,
"lat":27.686944,
"address":"江口县双江街道办事处坝上",
"count":"30.6"
},
{
"unit_id":3844,
"name":"建材市场小区",
"lng":108.840055,
"lat":27.600475,
"address":"江口县双江街道办事处杨澜桥",
"count":"40.5"
},
{
"unit_id":3845,
"name":"文昌阁小区",
"lng":109.208526,
"lat":27.425983,
"address":"玉屏侗族自治县皂角坪街平江路7号",
"count":"50.4"
},
{
"unit_id":3846,
"name":"民族中学家属区",
"lng":109.092784,
"lat":27.323552,
"address":"玉屏侗族自治县皂角坪街道紫气路26号",
"count":"80.3"
},
{
"unit_id":3848,
"name":"烟草局小区",
"lng":108.504956,
"lat":28.566366,
"address":"沿河土家族自治县和平街道办事处团结大道与世纪街交叉口西150米",
"count":"70.8"
},
{
"unit_id":3849,
"name":"乌江明珠小区",
"lng":108.455931,
"lat":28.670568,
"address":"沿河土家族自治县和平街道办事处团结大道与乌江二桥交叉口北侧恒洋乌江明珠楼盘",
"count":"70.6"
},
{
"unit_id":3852,
"name":"福天领秀城小区",
"lng":108.217313,
"lat":27.587323,
"address":"石阡县泉都街道佛顶山南路",
"count":"60.5"
},
{
"unit_id":3864,
"name":"城北小区",
"lng":108.523909,
"lat":27.546494,
"address":"石阡县汤山街道北塔大道",
"count":"50.4"
},
{
"unit_id":3869,
"name":"国土局小区",
"lng":108.231142,
"lat":27.398547,
"address":"石阡县泉都街道佛顶山北路",
"count":"10.3"
},
{
"unit_id":3870,
"name":"县人民医院小区",
"lng":108.192928,
"lat":27.418976,
"address":"石阡县汤山街道北塔大道",
"count":"20.2"
},
{
"unit_id":3930,
"name":"国土资源局宿舍",
"lng":109.126326,
"lat":28.009883,
"address":"松桃蓼皋街道平块大道",
"count":"30.3"
},
{
"unit_id":3931,
"name":"金都小区",
"lng":109.19893,
"lat":28.013816,
"address":"松桃蓼皋街道平块大道",
"count":"30.5"
},
{
"unit_id":3932,
"name":"付家湾小区",
"lng":108.124021,
"lat":28.168451,
"address":"玉水街道钟山中路",
"count":"90.7"
},
{
"unit_id":3933,
"name":"中维国际小区",
"lng":108.60339,
"lat":28.100131,
"address":"印江土家族苗族自治县龙津街道荣昌街",
"count":"80.6"
}
]
}



