{
"RECORDS":[
{
"unit_id":2543,
"name":"尊荣府邸小区 ",
"address":"贵州省铜仁市碧江区环西路",
"lng":109.084078,
"lat":27.61123,
"province_code":"520000",
"city_code":"520600",
"town_code":"520602",
"town_name":"碧江区",
"peoplecount":24,
"carcount":12
},
{
"unit_id":2577,
"name":"和泰皓璟小区",
"address":"贵州省铜仁市高新区",
"lng":109.18182,
"lat":27.693219,
"province_code":"520000",
"city_code":"520600",
"town_code":"520603",
"town_name":"万山区",
"peoplecount":24,
"carcount":12
},
{
"unit_id":3310,
"name":"仁山公园",
"address":"贵州省铜仁市万山区",
"lng":109.164453,
"lat":27.687873,
"province_code":"520000",
"city_code":"520600",
"town_code":"520603",
"town_name":"万山区",
"peoplecount":24,
"carcount":12
},
{
"unit_id":3522,
"name":"冲广坪",
"address":"铜仁市万山区",
"lng":109.182823,
"lat":27.672497,
"province_code":"520000",
"city_code":"520600",
"town_code":"520603",
"town_name":"万山区",
"peoplecount":24,
"carcount":12
},
{
"unit_id":3656,
"name":"万和星城",
"address":"铜仁市万山区",
"lng":109.18624,
"lat":27.686907,
"province_code":"520000",
"city_code":"520600",
"town_code":"520603",
"town_name":"万山区",
"peoplecount":24,
"carcount":12
},
{
"unit_id":3677,
"name":"花果山",
"address":"贵州铜仁",
"lng":109.1890396964,
"lat":27.7330540393,
"province_code":"520000",
"city_code":"520600",
"town_code":"520602",
"town_name":"碧江区",
"peoplecount":24,
"carcount":12
},
{
"unit_id":3797,
"name":"国税局宿舍",
"address":"松桃县蓼皋街道龙塘湾",
"lng":109.191667,
"lat":28.163333,
"province_code":"520000",
"city_code":"520600",
"town_code":"520628",
"town_name":"松桃苗族自治县",
"peoplecount":24,
"carcount":12
},
{
"unit_id":3798,
"name":"金阳小区",
"address":"松桃县蓼皋街道县府路",
"lng":109.197778,
"lat":28.168333,
"province_code":"520000",
"city_code":"520600",
"town_code":"520628",
"town_name":"松桃苗族自治县",
"peoplecount":24,
"carcount":12
},
{
"unit_id":3801,
"name":"新车站小区",
"address":"青龙街道香树路",
"lng":108.110938,
"lat":28.275331,
"province_code":"520000",
"city_code":"520600",
"town_code":"520626",
"town_name":"德江县",
"peoplecount":24,
"carcount":12
},
{
"unit_id":3802,
"name":"中兴花苑小区",
"address":"玉水街道钟山中路",
"lng":108.13336,
"lat":28.296707,
"province_code":"520000",
"city_code":"520600",
"town_code":"520626",
"town_name":"德江县",
"peoplecount":24,
"carcount":12
},
{
"unit_id":3805,
"name":"多维国际",
"address":"印江土家族苗族自治县龙津街道西园路",
"lng":108.409961,
"lat":28.005926,
"province_code":"520000",
"city_code":"520600",
"town_code":"520625",
"town_name":"印江土家族苗族自治县",
"peoplecount":24,
"carcount":12
},
{
"unit_id":3806,
"name":"花园城",
"address":"印江土家族苗族自治县龙津街道中寨口",
"lng":108.406569,
"lat":28.005795,
"province_code":"520000",
"city_code":"520600",
"town_code":"520625",
"town_name":"印江土家族苗族自治县",
"peoplecount":24,
"carcount":12
},
{
"unit_id":3807,
"name":"县医院",
"address":"印江土家族苗族自治县龙津街道荣昌街",
"lng":108.411006,
"lat":28.001683,
"province_code":"520000",
"city_code":"520600",
"town_code":"520625",
"town_name":"印江土家族苗族自治县",
"peoplecount":24,
"carcount":12
},
{
"unit_id":3808,
"name":"东城1号",
"address":"印江土家族苗族自治县峨岭街道县府路",
"lng":108.423661,
"lat":28.001977,
"province_code":"520000",
"city_code":"520600",
"town_code":"520625",
"town_name":"印江土家族苗族自治县",
"peoplecount":24,
"carcount":12
},
{
"unit_id":3809,
"name":"东馨园",
"address":"印江土家族苗族自治县峨岭街道紫薇路",
"lng":108.426316,
"lat":27.997456,
"province_code":"520000",
"city_code":"520600",
"town_code":"520625",
"town_name":"印江土家族苗族自治县",
"peoplecount":24,
"carcount":12
},
{
"unit_id":3810,
"name":"和达幸福花园",
"address":"印江土家族苗族自治县峨岭街道峨江路",
"lng":108.42311,
"lat":27.998259,
"province_code":"520000",
"city_code":"520600",
"town_code":"520625",
"town_name":"印江土家族苗族自治县",
"peoplecount":24,
"carcount":12
},
{
"unit_id":3813,
"name":"风筝放飞基地",
"address":"铜仁市万山区谢桥街道万山区谢桥办事处",
"lng":109.299523,
"lat":27.482541,
"province_code":"520000",
"city_code":"520600",
"town_code":"520603",
"town_name":"万山区",
"peoplecount":24,
"carcount":12
},
{
"unit_id":3814,
"name":"八中",
"address":"铜仁市万山区谢桥街道办事处冲广坪",
"lng":109.195325,
"lat":27.45901,
"province_code":"520000",
"city_code":"520600",
"town_code":"520603",
"town_name":"万山区",
"peoplecount":24,
"carcount":12
},
{
"unit_id":3815,
"name":"平块小区",
"address":"松桃县蓼皋街道平块大道",
"lng":109.206111,
"lat":28.1675,
"province_code":"520000",
"city_code":"520600",
"town_code":"520628",
"town_name":"松桃苗族自治县",
"peoplecount":24,
"carcount":12
},
{
"unit_id":3837,
"name":"江岸名都二组团",
"address":"思唐街道城北街",
"lng":108.251628,
"lat":27.953301,
"province_code":"520000",
"city_code":"520600",
"town_code":"520624",
"town_name":"思南县",
"peoplecount":24,
"carcount":12
},
{
"unit_id":3841,
"name":"金海岸小区",
"address":"思唐街道城北街",
"lng":108.252478,
"lat":27.947318,
"province_code":"520000",
"city_code":"520600",
"town_code":"520624",
"town_name":"思南县",
"peoplecount":24,
"carcount":12
},
{
"unit_id":3842,
"name":"劲嘉生态城",
"address":"江口县双江街道办事处二中对面",
"lng":108.836923,
"lat":27.698844,
"province_code":"520000",
"city_code":"520600",
"town_code":"520621",
"town_name":"江口县",
"peoplecount":24,
"carcount":12
},
{
"unit_id":3843,
"name":"江上明珠",
"address":"江口县双江街道办事处坝上",
"lng":108.844675,
"lat":27.686944,
"province_code":"520000",
"city_code":"520600",
"town_code":"520621",
"town_name":"江口县",
"peoplecount":24,
"carcount":12
},
{
"unit_id":3845,
"name":"文昌阁小区",
"address":"玉屏侗族自治县皂角坪街平江路7号",
"lng":108.908526,
"lat":27.235983,
"province_code":"520000",
"city_code":"520600",
"town_code":"520622",
"town_name":"玉屏侗族自治县",
"peoplecount":24,
"carcount":12
},
{
"unit_id":3846,
"name":"民族中学家属区",
"address":"玉屏侗族自治县皂角坪街道紫气路26号",
"lng":108.912784,
"lat":27.233552,
"province_code":"520000",
"city_code":"520600",
"town_code":"520622",
"town_name":"玉屏侗族自治县",
"peoplecount":24,
"carcount":12
},
{
"unit_id":3848,
"name":"烟草局小区",
"address":"沿河土家族自治县和平街道办事处团结大道与世纪街交叉口西150米",
"lng":108.504956,
"lat":28.566366,
"province_code":"520000",
"city_code":"520600",
"town_code":"520627",
"town_name":"沿河土家族自治县",
"peoplecount":24,
"carcount":12
},
{
"unit_id":3849,
"name":"乌江明珠小区",
"address":"沿河土家族自治县和平街道办事处团结大道与乌江二桥交叉口北侧恒洋乌江明珠楼盘",
"lng":108.505931,
"lat":28.570568,
"province_code":"520000",
"city_code":"520600",
"town_code":"520627",
"town_name":"沿河土家族自治县",
"peoplecount":24,
"carcount":12
},
{
"unit_id":3850,
"name":"红星桥社区",
"address":"沿河土家族自治县和平街道办事处滨江路与乌江大桥路口东10米",
"lng":108.493586,
"lat":28.556223,
"province_code":"520000",
"city_code":"520600",
"town_code":"520627",
"town_name":"沿河土家族自治县",
"peoplecount":24,
"carcount":12
},
{
"unit_id":3851,
"name":"泉城别苑",
"address":"石阡县泉都街道佛顶山南路",
"lng":108.218771,
"lat":27.502738,
"province_code":"520000",
"city_code":"520600",
"town_code":"520623",
"town_name":"石阡县",
"peoplecount":24,
"carcount":12
},
{
"unit_id":3855,
"name":"龙川丽景小区",
"address":"石阡县汤山街道北塔大道",
"lng":108.233981,
"lat":27.534032,
"province_code":"520000",
"city_code":"520600",
"town_code":"520623",
"town_name":"石阡县",
"peoplecount":24,
"carcount":12
},
{
"unit_id":3869,
"name":"国土局小区",
"address":"石阡县泉都街道佛顶山北路",
"lng":108.231142,
"lat":27.528547,
"province_code":"520000",
"city_code":"520600",
"town_code":"520623",
"town_name":"石阡县",
"peoplecount":24,
"carcount":12
}


]
}